{
  "features": [
    {
      "type": "Feature",
      "properties": {
        "marker-color": "#7e7e7e",
        "marker-size": "medium",
        "marker-symbol": "",
        "name": "Melbourne Convention Exhibition Centre",
        "sensor_id": 25
      },
      "geometry": {
        "coordinates": [
          144.956134,
          -37.824192
        ],
        "type": "Point"
      },
      "id": "030e2438c43f4142e9662046b7bc80f4"
    },
    {
      "type": "Feature",
      "properties": {
        "marker-color": "#f5ef07",
        "marker-size": "medium",
        "marker-symbol": "",
        "name": "Webb Bridge",
        "sensor_id": 8,
        
      },
      "geometry": {
        "coordinates": [
          144.947197,
          -37.823031
        ],
        "type": "Point"
      },
      "id": "072231892c799240a1a6e87e7b66fced"
    },
    {
      "type": "Feature",
      "properties": {
        "marker-color": "#7e7e7e",
        "marker-size": "medium",
        "marker-symbol": "",
        "name": "Bourke St - Spencer St (North)",
        
        "sensor_id": 58
      },
      "geometry": {
        "coordinates": [
          144.953398,
          -37.817039
        ],
        "type": "Point"
      },
      "id": "0ad4d25da1a8c0513249089e8dc968d5"
    },
    {
      "type": "Feature",
      "properties": {
        "marker-color": "#7e7e7e",
        "marker-size": "medium",
        "marker-symbol": "",
        "name": "Chinatown-Swanston St (North)",
        
        "sensor_id": 19
      },
      "geometry": {
        "coordinates": [
          144.965554,
          -37.812411
        ],
        "type": "Point"
      },
      "id": "0b5e836605df8edfacef92fcae685501"
    },
    {
      "type": "Feature",
      "properties": {
        "marker-color": "#7e7e7e",
        "marker-size": "medium",
        "marker-symbol": "",
        "name": "Southern Cross Station",
        
        "sensor_id": 9
      },
      "geometry": {
        "coordinates": [
          144.951145,
          -37.81998
        ],
        "type": "Point"
      },
      "id": "0d8b7811419660aa04c09d0f01ca9f32"
    },
    {
      "type": "Feature",
      "properties": {
        "marker-color": "#7e7e7e",
        "marker-size": "medium",
        "marker-symbol": "",
        "name": "Faraday St-Lygon St (West)",
        
        "sensor_id": 50
      },
      "geometry": {
        "coordinates": [
          144.967367,
          -37.797975
        ],
        "type": "Point"
      },
      "id": "14ead1c24b1ae60bf87b2af2168f33be"
    },
    {
      "type": "Feature",
      "properties": {
        "marker-color": "#7e7e7e",
        "marker-size": "medium",
        "marker-symbol": "",
        "name": "Pelham St (South)",
        
        "sensor_id": 46
      },
      "geometry": {
        "coordinates": [
          144.961735,
          -37.802366
        ],
        "type": "Point"
      },
      "id": "2003824173f07875cc35ad5056fb85c3"
    },
    {
      "type": "Feature",
      "properties": {
        "marker-color": "#7e7e7e",
        "marker-size": "medium",
        "marker-symbol": "",
        "name": "QVM-Queen St (East)",
        "sensor_id": 48
      },
      "geometry": {
        "coordinates": [
          144.959396,
          -37.806558
        ],
        "type": "Point"
      },
      "id": "2aaef4d33b331945200258db66cf84cd"
    },
    {
      "type": "Feature",
      "properties": {
        "marker-color": "#7e7e7e",
        "marker-size": "medium",
        "marker-symbol": "",
        "name": "Bourke St Bridge",
        
        "sensor_id": 57
      },
      "geometry": {
        "coordinates": [
          144.950276,
          -37.817674
        ],
        "type": "Point"
      },
      "id": "2f45e04b080c82fef3613c47c0c345e1"
    },
    {
      "type": "Feature",
      "properties": {
        "marker-color": "#7e7e7e",
        "marker-size": "medium",
        "marker-symbol": "",
        "name": "Lonsdale St-Spring St (West)",
        
        "sensor_id": 40
      },
      "geometry": {
        "coordinates": [
          144.972453,
          -37.810218
        ],
        "type": "Point"
      },
      "id": "39359f1ba55ea9e334e6a8dfb60bb836"
    },
    {
      "type": "Feature",
      "properties": {
        "marker-color": "#7e7e7e",
        "marker-size": "medium",
        "marker-symbol": "",
        "name": "Queen St (West)",
        
        "sensor_id": 36
      },
      "geometry": {
        "coordinates": [
          144.96137,
          -37.816683
        ],
        "type": "Point"
      },
      "id": "3e6ced117b4d3e8925e0172af8c2f3ba"
    },
    {
      "type": "Feature",
      "properties": {
        "marker-color": "#7e7e7e",
        "marker-size": "medium",
        "marker-symbol": "",
        "name": "Victoria Point",
        
        "sensor_id": 10
      },
      "geometry": {
        "coordinates": [
          144.947111,
          -37.818954
        ],
        "type": "Point"
      },
      "id": "3fc164fd3590fcb92508b2a8d84bf18b"
    },
    {
      "type": "Feature",
      "properties": {
        "marker-color": "#7e7e7e",
        "marker-size": "medium",
        "marker-symbol": "",
        "name": "Melbourne Central-Elizabeth St (East)",
        
        "sensor_id": 47
      },
      "geometry": {
        "coordinates": [
          144.962072,
          -37.811559
        ],
        "type": "Point"
      },
      "id": "42bc68140cf1543c35f67986a18d01de"
    },
    {
      "type": "Feature",
      "properties": {
        "marker-color": "#7e7e7e",
        "marker-size": "medium",
        "marker-symbol": "",
        "name": "The Arts Centre",
       
        "sensor_id": 28
      },
      "geometry": {
        "coordinates": [
          144.968869,
          -37.821285
        ],
        "type": "Point"
      },
      "id": "43295c93fcb1992abc00d5904de483ce"
    },
    {
      "type": "Feature",
      "properties": {
        "marker-color": "#7e7e7e",
        "marker-size": "medium",
        "marker-symbol": "",
        "name": "Flinders St-Spark La",
        
        "sensor_id": 34
      },
      "geometry": {
        "coordinates": [
          144.974207,
          -37.81539
        ],
        "type": "Point"
      },
      "id": "480602057d5135b1787a5c181dfb6f8b"
    },
    {
      "type": "Feature",
      "properties": {
        "marker-color": "#7e7e7e",
        "marker-size": "medium",
        "marker-symbol": "",
        "name": "Little Collins St-Swanston St (East)",
        
        "sensor_id": 45
      },
      "geometry": {
        "coordinates": [
          144.966013,
          -37.814216
        ],
        "type": "Point"
      },
      "id": "563fe91badd1c0bf8e468b1a6447cd4c"
    },
    {
      "type": "Feature",
      "properties": {
        "marker-color": "#7e7e7e",
        "marker-size": "medium",
        "marker-symbol": "",
        "name": "QV Market-Elizabeth St (West)",
        
        "sensor_id": 26
      },
      "geometry": {
        "coordinates": [
          144.960549,
          -37.808749
        ],
        "type": "Point"
      },
      "id": "5cdf0daebebd032fd1928c304035838e"
    },
    {
      "type": "Feature",
      "properties": {
        "marker-color": "#0d29f0",
        "marker-size": "medium",
        "marker-symbol": "",
        "name": "New Quay",
       
        "sensor_id": 12
      },
      "geometry": {
        "coordinates": [
          144.942908,
          -37.814558
        ],
        "type": "Point"
      },
      "id": "5fffbb7105107d54a4e79c9c0cf66c3f"
    },
    {
      "type": "Feature",
      "properties": {
        "marker-color": "#7e7e7e",
        "marker-size": "medium",
        "marker-symbol": "",
        "name": "Chinatown-Lt Bourke St (South)",
        
        "sensor_id": 20
      },
      "geometry": {
        "coordinates": [
          144.968118,
          -37.811678
        ],
        "type": "Point"
      },
      "id": "656e5a72da15d790a6297c66f0b69e16"
    },
    {
      "type": "Feature",
      "properties": {
        "marker-color": "#7e7e7e",
        "marker-size": "medium",
        "marker-symbol": "",
        "name": "Birrarung Marr",
        "sensor_id": 7,
       
      },
      "geometry": {
        "coordinates": [
          144.971551,
          -37.818261
        ],
        "type": "Point"
      },
      "id": "69f9f5a488dfbc5e50fce99d86e63f49"
    },
    {
      "type": "Feature",
      "properties": {
        "marker-color": "#7e7e7e",
        "marker-size": "medium",
        "marker-symbol": "",
        "name": "Sandridge Bridge",
        
        "sensor_id": 14
      },
      "geometry": {
        "coordinates": [
          144.962807,
          -37.820268
        ],
        "type": "Point"
      },
      "id": "6c4c3e2c37e7d9450cafc58e4254fe49"
    },
    {
      "type": "Feature",
      "properties": {
        "marker-color": "#7e7e7e",
        "marker-size": "medium",
        "marker-symbol": "",
        "name": "Lonsdale St (South)",
       
        "sensor_id": 30
      },
      "geometry": {
        "coordinates": [
          144.966493,
          -37.811131
        ],
        "type": "Point"
      },
      "id": "6f9ee87a826351139f57515464d18699"
    },
    {
      "type": "Feature",
      "properties": {
        "marker-color": "#7e7e7e",
        "marker-size": "medium",
        "marker-symbol": "",
        "name": "QV Market-Peel St",
       
        "sensor_id": 27
      },
      "geometry": {
        "coordinates": [
          144.956445,
          -37.806011
        ],
        "type": "Point"
      },
      "id": "6fb175bd7ae36debb8ac91ad65558adb"
    },
    {
      "type": "Feature",
      "properties": {
        "marker-color": "#7e7e7e",
        "marker-size": "medium",
        "marker-symbol": "",
        "name": "Lygon St (East)",
        
        "sensor_id": 37
      },
      "geometry": {
        "coordinates": [
          144.966595,
          -37.803506
        ],
        "type": "Point"
      },
      "id": "725d55348ede3df7c3fd5cc446b0c8c5"
    },
    {
      "type": "Feature",
      "properties": {
        "marker-color": "#7e7e7e",
        "marker-size": "medium",
        "marker-symbol": "",
        "name": "St Kilda Rd-Alexandra Gardens",
       
        "sensor_id": 29
      },
      "geometry": {
        "coordinates": [
          144.968609,
          -37.819677
        ],
        "type": "Point"
      },
      "id": "737a6bf9de537ab1ae06e3b29e66a397"
    },
    {
      "type": "Feature",
      "properties": {
        "marker-color": "#7e7e7e",
        "marker-size": "medium",
        "marker-symbol": "",
        "name": "Elizabeth St-Lonsdale St (South)",
       
        "sensor_id": 52
      },
      "geometry": {
        "coordinates": [
          144.961895,
          -37.812475
        ],
        "type": "Point"
      },
      "id": "7adfb38c0e531dccfd3b111667c064b7"
    },
    {
      "type": "Feature",
      "properties": {
        "marker-color": "#7e7e7e",
        "marker-size": "medium",
        "marker-symbol": "",
        "name": "Collins Place (South)",
        
        "sensor_id": 17
      },
      "geometry": {
        "coordinates": [
          144.973145,
          -37.813634
        ],
        "type": "Point"
      },
      "id": "7cac8ab0997876a9de0a1e7242436dd2"
    },
    {
      "type": "Feature",
      "properties": {
        "marker-color": "#7e7e7e",
        "marker-size": "medium",
        "marker-symbol": "",
        "name": "Flinders St-Spring St (West)",
        
        "sensor_id": 33
      },
      "geometry": {
        "coordinates": [
          144.974566,
          -37.814873
        ],
        "type": "Point"
      },
      "id": "7ddd09acadd963daaad822a7324e486f"
    },
    {
      "type": "Feature",
      "properties": {
        "marker-color": "#7e7e7e",
        "marker-size": "medium",
        "marker-symbol": "",
        "name": "QVM-Therry St (South)",
        "sensor_id": 49
      },
      "geometry": {
        "coordinates": [
          144.959589,
          -37.807168
        ],
        "type": "Point"
      },
      "id": "84840e4d56fa6ae1f0f7576694b6172d"
    },
    {
      "type": "Feature",
      "properties": {
        "marker-color": "#7e7e7e",
        "marker-size": "medium",
        "marker-symbol": "",
        "name": "QVM-Franklin St (North)",
        
        "sensor_id": 51
      },
      "geometry": {
        "coordinates": [
          144.959007,
          -37.808467
        ],
        "type": "Point"
      },
      "id": "92daa29f61e91e9d3b807d95419e0c9f"
    },
    {
      "type": "Feature",
      "properties": {
        "marker-color": "#7e7e7e",
        "marker-size": "medium",
        "marker-symbol": "",
        "name": "Tin Alley-Swanston St (West)",
        
        "sensor_id": 44
      },
      "geometry": {
        "coordinates": [
          144.964438,
          -37.796975
        ],
        "type": "Point"
      },
      "id": "988c7e0132805312292583a7ba53d375"
    },
    {
      "type": "Feature",
      "properties": {
        "marker-color": "#7e7e7e",
        "marker-size": "medium",
        "marker-symbol": "",
        "name": "Bourke Street Mall (South)",
        "sensor_id": 2,
        
      },
      "geometry": {
        "coordinates": [
          144.965372,
          -37.813655
        ],
        "type": "Point"
      },
      "id": "9be07dee783b7730ec192f532cedf248"
    },
    {
      "type": "Feature",
      "properties": {
        "marker-color": "#7e7e7e",
        "marker-size": "medium",
        "marker-symbol": "",
        "name": "Spencer St-Collins St (South)",
        
        "sensor_id": 23
      },
      "geometry": {
        "coordinates": [
          144.954407,
          -37.819081
        ],
        "type": "Point"
      },
      "id": "9caed9c2b4a5c878cba1468605217f18"
    },
    {
      "type": "Feature",
      "properties": {
        "marker-color": "#7e7e7e",
        "marker-size": "medium",
        "marker-symbol": "",
        "name": "Southbank",
       
        "sensor_id": 35
      },
      "geometry": {
        "coordinates": [
          144.965098,
          -37.820183
        ],
        "type": "Point"
      },
      "id": "a7e460412c94b9c75a879431ef3b23fb"
    },
    {
      "type": "Feature",
      "properties": {
        "marker-color": "#f80c05",
        "marker-size": "medium",
        "marker-symbol": "marker",
        "name": "Waterfront City",
        
        "sensor_id": 11
      },
      "geometry": {
        "coordinates": [
          144.939703,
          -37.815784
        ],
        "type": "Point"
      },
      "id": "ae1e4becdb735346fa6c05fd38572c72"
    },
    {
      "type": "Feature",
      "properties": {
        "marker-color": "#7e7e7e",
        "marker-size": "medium",
        "marker-symbol": "",
        "name": "Bourke Street Mall (North)",
        "sensor_id": 1,
       
      },
      "geometry": {
        "coordinates": [
          144.965382,
          -37.813549
        ],
        "type": "Point"
      },
      "id": "b032b6ff53558bee50a83c949d555bff"
    },
    {
      "type": "Feature",
      "properties": {
        "marker-color": "#7e7e7e",
        "marker-size": "medium",
        "marker-symbol": "",
        "name": "Alfred Place",
       
        "sensor_id": 39
      },
      "geometry": {
        "coordinates": [
          144.969961,
          -37.813795
        ],
        "type": "Point"
      },
      "id": "b0b4595beeb841f7b3403ea0d78a8933"
    },
    {
      "type": "Feature",
      "properties": {
        "marker-color": "#7e7e7e",
        "marker-size": "medium",
        "marker-symbol": "",
        "name": "Collins Place (North)",
        
        "sensor_id": 18
      },
      "geometry": {
        "coordinates": [
          144.973088,
          -37.813485
        ],
        "type": "Point"
      },
      "id": "b297624619d855ce4a7653c7d66282e8"
    },
    {
      "type": "Feature",
      "properties": {
        "marker-color": "#7e7e7e",
        "marker-size": "medium",
        "marker-symbol": "",
        "name": "Princes Bridge",
        "sensor_id": 5,
        
      },
      "geometry": {
        "coordinates": [
          144.967885,
          -37.818776
        ],
        "type": "Point"
      },
      "id": "b65e5cafcd1c652fc25b8fa9a122a8ab"
    },
    {
      "type": "Feature",
      "properties": {
        "marker-color": "#7e7e7e",
        "marker-size": "medium",
        "marker-symbol": "",
        "name": "Flinders St-Elizabeth St (East)",
        
        "sensor_id": 22
      },
      "geometry": {
        "coordinates": [
          144.965036,
          -37.818058
        ],
        "type": "Point"
      },
      "id": "b75223cb3ef98d9963cec40ca7546c38"
    },
    {
      "type": "Feature",
      "properties": {
        "marker-color": "#7e7e7e",
        "marker-size": "medium",
        "marker-symbol": "",
        "name": "Grattan St-Swanston St (West)",
        
        "sensor_id": 42
      },
      "geometry": {
        "coordinates": [
          144.963912,
          -37.800162
        ],
        "type": "Point"
      },
      "id": "b8f208392df53fa65ecc564d295a6881"
    },
    {
      "type": "Feature",
      "properties": {
        "marker-color": "#7e7e7e",
        "marker-size": "medium",
        "marker-symbol": "",
        "name": "Lonsdale St - Elizabeth St (North)",
        
        "sensor_id": 56
      },
      "geometry": {
        "coordinates": [
          144.961627,
          -37.812381
        ],
        "type": "Point"
      },
      "id": "c1a863aac6a6089acad4b2923e220f1d"
    },
    {
      "type": "Feature",
      "properties": {
        "marker-color": "#7e7e7e",
        "marker-size": "medium",
        "marker-symbol": "",
        "name": "State Library",
       
        "sensor_id": 15
      },
      "geometry": {
        "coordinates": [
          144.964395,
          -37.810758
        ],
        "type": "Point"
      },
      "id": "ca61d3de9fefc70e1ce703c09a8c4605"
    },
    {
      "type": "Feature",
      "properties": {
        "marker-size": "medium",
       
        "name": "Spencer St-Collins St (North)",
        "marker-color": "#000000",
        "marker-symbol": "",
        "sensor_id": 24
      },
      "geometry": {
        "coordinates": [
          144.954299,
          -37.818937
        ],
        "type": "Point"
      },
      "id": "cf4c2c7308e295e4716d402dc7e44c75"
    },
    {
      "type": "Feature",
      "properties": {
        "marker-color": "#7e7e7e",
        "marker-size": "medium",
        "marker-symbol": "",
        "name": "Lygon St (West)",
       
        "sensor_id": 31
      },
      "geometry": {
        "coordinates": [
          144.966664,
          -37.801853
        ],
        "type": "Point"
      },
      "id": "d1434adfcfa9cffe9dd163303a561f78"
    },
    {
      "type": "Feature",
      "properties": {
        "marker-color": "#7e7e7e",
        "marker-size": "medium",
        "marker-symbol": "",
        "name": "Collins St (North)",
       
        "sensor_id": 53
      },
      "geometry": {
        "coordinates": [
          144.965664,
          -37.815659
        ],
        "type": "Point"
      },
      "id": "d3eb825c86e074b8f50c439c399ebc3e"
    },
    {
      "type": "Feature",
      "properties": {
        "marker-color": "#7e7e7e",
        "marker-size": "medium",
        "marker-symbol": "",
        "name": "Town Hall (West)",
        "sensor_id": 4,
        
      },
      "geometry": {
        "coordinates": [
          144.966318,
          -37.815113
        ],
        "type": "Point"
      },
      "id": "e02065756c0a2686701dfd13592b729d"
    },
    {
      "type": "Feature",
      "properties": {
        "marker-color": "#7e7e7e",
        "marker-size": "medium",
        "marker-symbol": "",
        "name": "Bourke St-Russell St (West)",
        
        "sensor_id": 21
      },
      "geometry": {
        "coordinates": [
          144.967839,
          -37.812494
        ],
        "type": "Point"
      },
      "id": "e8f397bc1269aa60993cacce886e3ca9"
    },
    {
      "type": "Feature",
      "properties": {
        "marker-color": "#7e7e7e",
        "marker-size": "medium",
        "marker-symbol": "",
        "name": "Monash Rd-Swanston St (West)",
       
        "sensor_id": 43
      },
      "geometry": {
        "coordinates": [
          144.964181,
          -37.798501
        ],
        "type": "Point"
      },
      "id": "e91f8b9aa022edb8a7d9947a932101f1"
    },
    {
      "type": "Feature",
      "properties": {
        "marker-color": "#7e7e7e",
        "marker-size": "medium",
        "marker-symbol": "",
        "name": "Lincoln-Swanston (West)",
       
        "sensor_id": 54
      },
      "geometry": {
        "coordinates": [
          144.96322,
          -37.804197
        ],
        "type": "Point"
      },
      "id": "eadac8c8e4fbd0aca7eac0a83c4b6d72"
    },
    {
      "type": "Feature",
      "properties": {
        "marker-color": "#7e7e7e",
        "marker-size": "medium",
        "marker-symbol": "",
        "name": "Flinders Street Station Underpass",
        "sensor_id": 6,
        
      },
      "geometry": {
        "coordinates": [
          144.965589,
          -37.819151
        ],
        "type": "Point"
      },
      "id": "ee4c8e1c94458cfab5cf3fb6ffc4aa20"
    }
  ],
  "type": "FeatureCollection"
}
